# Time (s),Altitude (m),Vertical velocity (m/s),Vertical acceleration (m/s²),Total velocity (m/s),Total acceleration (m/s²),Position East of launch (m),Position North of launch (m),Lateral distance (m),Lateral direction (°),Lateral velocity (m/s),Lateral acceleration (m/s²),Latitude (°),Longitude (°),Gravitational acceleration (m/s²),Angle of attack (°),Roll rate (°/s),Pitch rate (°/s),Yaw rate (°/s),Mass (g),Propellant mass (g),Longitudinal moment of inertia (kg·m²),Rotational moment of inertia (kg·m²),CP location (cm),CG location (cm),Stability margin calibers (?),Mach number (?),Reynolds number (?),Thrust (N),Drag force (N),Drag coefficient (?),Axial drag coefficient (?),Friction drag coefficient (?),Pressure drag coefficient (?),Base drag coefficient (?),Normal force coefficient (?),Pitch moment coefficient (?),Yaw moment coefficient (?),Side force coefficient (?),Roll moment coefficient (?),Roll forcing coefficient (?),Roll damping coefficient (?),Pitch damping coefficient (?),Coriolis acceleration (m/s²),Reference length (cm),Reference area (cm²),Vertical orientation (zenith) (°),Lateral orientation (azimuth) (°),Wind velocity (m/s),Air temperature (°C),Air pressure (mbar),Speed of sound (m/s),Simulation time step (s),Computation time (s)
# Event LAUNCH occurred at t=0 seconds
# Event IGNITION occurred at t=0 seconds
0,0,0,-9.4513,0,9.4513,0,0,0,0,0,0,37.2,-80.6,9.7987,90,0,0,0,2110.5,405,0.6168,0.0079993,NaN,114.33,NaN,0.0065146,233181,0.73317,0,0.67731,0,0.51264,0.044665,0.12001,NaN,NaN,NaN,NaN,NaN,NaN,NaN,NaN,0,7.87,48.645,90,0,NaN,13.817,991.9,339.67,2e-3,0.0029047
2e-3,0,0,-8.7565,0,8.7565,0,0,0,0,0,0,37.2,-80.6,9.7987,90,0,0,0,2110.5,405,0.6168,0.0079993,NaN,114.33,NaN,0.0065194,233353,2.1995,0,0.67722,0,0.51255,0.044665,0.12001,NaN,NaN,NaN,NaN,NaN,NaN,NaN,NaN,0,7.87,48.645,90,0,NaN,13.817,991.9,339.67,2e-3,0.0036884
4e-3,0,0,-8.0618,0,8.0618,0,0,0,0,0,0,37.2,-80.6,9.7987,90,0,0,0,2110.5,405,0.6168,0.0079993,NaN,114.33,NaN,0.0065242,233525,3.6658,0,0.67713,0,0.51246,0.044665,0.12001,NaN,NaN,NaN,NaN,NaN,NaN,NaN,NaN,0,7.87,48.645,90,0,NaN,13.817,991.9,339.67,2e-3,0.010174
6e-3,0,0,2.708,0,2.708,0,0,0,0,0,0,37.2,-80.6,9.7987,90,0,0,0,2110.5,404.99,0.6168,0.0079993,NaN,114.33,NaN,0.006529,233696,26.396,0,0.67705,0,0.51237,0.044665,0.12001,NaN,NaN,NaN,NaN,NaN,NaN,NaN,NaN,0,7.87,48.645,90,0,NaN,13.817,991.9,339.67,2e-3,0.011511
8e-3,5.4162e-6,0.0054162,23.553,0.0054162,23.553,0,0,0,0,0,0,37.2,-80.6,9.7987,89.86,0,0,0,2110.5,404.97,0.6168,0.0079993,NaN,114.33,NaN,0.0065338,233869,70.389,0,0.67696,2.4703e-8,0.51229,0.044665,0.12001,NaN,NaN,NaN,NaN,NaN,NaN,NaN,NaN,6.2919e-7,7.87,48.645,90,0,NaN,13.817,991.9,339.67,2e-3,0.012417
0.01,6.3356e-5,0.052524,117.18,0.052524,117.18,0,0,0,0,0,0,37.2,-80.6,9.7987,88.645,0,0,0,2110.5,404.92,0.61679,0.0079993,NaN,114.33,NaN,0.0065404,234105,267.99,3.2063e-7,0.67684,2.2182e-5,0.51217,0.044665,0.12001,NaN,NaN,NaN,NaN,NaN,NaN,NaN,NaN,6.1016e-6,7.87,48.645,90,0,NaN,13.817,991.9,339.67,2e-3,0.013476
0.012,4.0279e-4,0.28691,225.19,0.28691,225.19,0,0,0,0,0,0,37.2,-80.6,9.7987,82.645,0,0,0,2110.3,404.76,0.61678,0.0079992,NaN,114.32,NaN,0.0065977,236155,495.9,4.8882e-5,0.6758,0.0033232,0.51113,0.044665,0.12001,NaN,NaN,NaN,NaN,NaN,NaN,NaN,NaN,3.333e-5,7.87,48.645,90,0,NaN,13.817,991.9,339.67,2e-3,0.016016
0.014,0.001427,0.73737,256.63,0.73737,256.63,0,0,0,0,0,0,37.2,-80.6,9.7987,71.659,0,0,0,2109.9,404.35,0.61675,0.0079992,NaN,114.32,NaN,0.0068986,246927,562.14,7.218e-4,0.67057,0.044883,0.5059,0.044665,0.12001,NaN,NaN,NaN,NaN,NaN,NaN,NaN,NaN,8.5659e-5,7.87,48.645,90,0,NaN,13.817,991.9,339.67,2e-3,0.019277
0.016,0.0034151,1.2507,279.06,1.2507,279.06,0,0,0,0,0,0,37.2,-80.6,9.7987,60.668,0,0,0,2109.4,403.81,0.61672,0.0079991,NaN,114.31,NaN,0.0075167,269049,609.31,0.002973,0.66072,0.15572,0.49604,0.044666,0.12001,NaN,NaN,NaN,NaN,NaN,NaN,NaN,NaN,1.453e-4,7.87,48.645,90,0,NaN,13.817,991.9,339.67,2e-3,0.020006
0.018,0.0064749,1.809,297.92,1.809,297.92,0,0,0,0,0,0,37.2,-80.6,9.7987,50.919,0,0,0,2108.7,403.2,0.61668,0.007999,NaN,114.31,NaN,0.0084479,302383,648.9,0.0074594,0.64777,0.30931,0.48309,0.044667,0.12001,NaN,NaN,NaN,NaN,NaN,NaN,NaN,NaN,2.1015e-4,7.87,48.645,90,0,NaN,13.817,991.9,339.67,2e-3,0.020703
0.02,0.010689,2.405,324.47,2.405,324.47,0,0,0,0,0,0,37.2,-80.6,9.7987,42.827,0,0,0,2108.1,402.55,0.61664,0.0079988,NaN,114.3,NaN,0.0096539,345550,704.69,0.014429,0.63358,0.45817,0.4689,0.044668,0.12001,NaN,NaN,NaN,NaN,NaN,NaN,NaN,NaN,2.7938e-4,7.87,48.645,90,0,NaN,13.817,991.9,339.67,2e-3,0.021408
0.022,0.016148,3.0541,322.34,3.0541,322.34,0,0,0,0,0,0,37.2,-80.6,9.7987,36.145,0,0,0,2107.4,401.87,0.61659,0.0079987,NaN,114.29,NaN,0.011134,398541,699.98,0.024189,0.6191,0.57741,0.45441,0.04467,0.12002,NaN,NaN,NaN,NaN,NaN,NaN,NaN,NaN,3.5479e-4,7.87,48.645,90,0,NaN,13.817,991.9,339.67,2e-3,0.022261
# Event LIFTOFF occurred at t=0.024 seconds
0.024,0.022901,3.699,312.94,3.699,312.94,0,0,0,0,0,0,37.2,-80.6,9.7987,31.111,0,0,0,2106.7,401.16,0.61654,0.0079986,NaN,114.29,NaN,0.012719,455272,679.94,0.035731,0.60618,0.65359,0.44149,0.044673,0.12002,NaN,NaN,NaN,NaN,NaN,NaN,NaN,NaN,4.297e-4,7.87,48.645,90,0,NaN,13.817,991.9,339.67,2e-3,0.023117
0.026,0.030925,4.325,304.38,4.325,304.38,0,0,0,0,0,0,37.2,-80.6,9.7987,27.318,0,0,0,2106,400.44,0.6165,0.0079985,NaN,114.28,NaN,0.014331,512967,661.71,0.048402,0.59507,0.69742,0.43037,0.044676,0.12003,NaN,NaN,NaN,NaN,NaN,NaN,NaN,NaN,5.0243e-4,7.87,48.645,90,0,NaN,13.817,991.9,339.67,2e-3,0.024292
0.028,0.040184,4.934,300.97,4.934,300.97,0,0,0,0,0,0,37.2,-80.6,9.7987,24.376,0,0,0,2105.3,399.74,0.61645,0.0079983,NaN,114.27,NaN,0.015947,570809,654.33,0.06192,0.58547,0.72054,0.42076,0.044679,0.12003,NaN,NaN,NaN,NaN,NaN,NaN,NaN,NaN,5.7317e-4,7.87,48.645,90,0,NaN,13.817,991.9,339.67,2e-3,0.036336
0.03,0.050654,5.5361,298.42,5.5361,298.42,0,0,0,0,0,0,37.2,-80.6,9.7987,22.005,0,0,0,2104.6,399.07,0.61641,0.0079982,NaN,114.26,NaN,0.017579,629210,648.76,0.076314,0.577,0.73083,0.41228,0.044683,0.12004,NaN,NaN,NaN,NaN,NaN,NaN,NaN,NaN,6.4311e-4,7.87,48.645,90,0,NaN,13.817,991.9,339.67,2e-3,0.03699
0.032,0.062323,6.1331,295.86,6.1331,295.86,0,0,0,0,0,0,37.2,-80.6,9.7987,20.055,0,0,0,2103.9,398.4,0.61636,0.0079981,NaN,114.26,NaN,0.019221,687999,643.18,0.091504,0.56946,0.73295,0.40473,0.044687,0.12005,NaN,NaN,NaN,NaN,NaN,NaN,NaN,NaN,7.1246e-4,7.87,48.645,90,0,NaN,13.817,991.9,339.67,2e-3,0.037593
0.034,0.075181,6.7249,293.3,6.7249,293.3,0,0,0,0,0,0,37.2,-80.6,9.7987,18.426,0,0,0,2103.3,397.73,0.61632,0.007998,NaN,114.25,NaN,0.020868,746947,637.61,0.10741,0.5627,0.72988,0.39795,0.044692,0.12006,NaN,NaN,NaN,NaN,NaN,NaN,NaN,NaN,7.8122e-4,7.87,48.645,90,0,NaN,13.817,991.9,339.67,2e-3,0.038194
0.036,0.089218,7.3117,290.75,7.3117,290.75,0,0,0,0,0,0,37.2,-80.6,9.7987,17.048,0,0,0,2102.6,397.07,0.61627,0.0079978,NaN,114.24,NaN,0.022515,805894,632.07,0.12395,0.55661,0.72359,0.39185,0.044697,0.12007,NaN,NaN,NaN,NaN,NaN,NaN,NaN,NaN,8.4938e-4,7.87,48.645,90,0,NaN,13.816,991.89,339.67,2e-3,0.038856
0.038,0.10442,7.8934,288.3,7.8934,288.3,0,0,0,0,0,0,37.2,-80.6,9.7987,15.868,0,0,0,2102,396.41,0.61623,0.0079977,NaN,114.23,NaN,0.024159,864726,626.72,0.14088,0.55109,0.71431,0.38631,0.044702,0.12008,NaN,NaN,NaN,NaN,NaN,NaN,NaN,NaN,9.1695e-4,7.87,48.645,90,0,NaN,13.816,991.89,339.67,2e-3,0.03949
0.04,0.12079,8.4701,285.85,8.4701,285.85,0,0,0,0,0,0,37.2,-80.6,9.7987,14.848,0,0,0,2101.3,395.77,0.61619,0.0079976,NaN,114.23,NaN,0.025797,923377,621.41,0.15801,0.54605,0.70265,0.38125,0.044707,0.12009,NaN,NaN,NaN,NaN,NaN,NaN,NaN,NaN,9.8395e-4,7.87,48.645,90,0,NaN,13.816,991.89,339.67,2e-3,0.04117
0.042,0.1383,9.0419,283.4,9.0419,283.4,0,0,0,0,0,0,37.2,-80.6,9.7987,13.956,0,0,0,2100.7,395.14,0.61615,0.0079975,NaN,114.22,NaN,0.027429,981785,616.09,0.17544,0.54143,0.6901,0.37662,0.044713,0.1201,NaN,NaN,NaN,NaN,NaN,NaN,NaN,NaN,0.0010504,7.87,48.645,90,0,NaN,13.816,991.89,339.67,2e-3,0.042096
0.044,0.15695,9.6089,280.95,9.6089,280.95,0,0,0,0,0,0,37.2,-80.6,9.7987,13.171,0,0,0,2100.1,394.51,0.6161,0.0079974,NaN,114.21,NaN,0.029053,1039900,610.77,0.19323,0.53717,0.67749,0.37234,0.04472,0.12011,NaN,NaN,NaN,NaN,NaN,NaN,NaN,NaN,0.0011162,7.87,48.645,90,0,NaN,13.816,991.89,339.67,2e-3,0.04298
0.046,0.17673,10.171,278.49,10.171,278.49,0,0,0,0,0,0,37.2,-80.6,9.7987,12.476,0,0,0,2099.4,393.88,0.61606,0.0079973,NaN,114.21,NaN,0.030667,1097685,605.46,0.21142,0.53324,0.66525,0.36839,0.044726,0.12012,NaN,NaN,NaN,NaN,NaN,NaN,NaN,NaN,0.0011815,7.87,48.645,90,0,NaN,13.816,991.88,339.67,2e-3,0.04363
0.048,0.19763,10.728,276.04,10.728,276.04,0,0,0,0,0,0,37.2,-80.6,9.7987,11.855,0,0,0,2098.8,393.25,0.61602,0.0079972,NaN,114.2,NaN,0.032272,1155109,600.14,0.23002,0.52959,0.65362,0.36473,0.044733,0.12014,NaN,NaN,NaN,NaN,NaN,NaN,NaN,NaN,0.0012463,7.87,48.645,90,0,NaN,13.816,991.88,339.67,2e-3,0.044291
0.05,0.21964,11.28,273.58,11.28,273.58,0,0,0,0,0,0,37.2,-80.6,9.7987,11.298,0,0,0,2098.2,392.62,0.61598,0.007997,NaN,114.19,NaN,0.033866,1212148,594.83,0.24906,0.5262,0.64269,0.36131,0.04474,0.12015,NaN,NaN,NaN,NaN,NaN,NaN,NaN,NaN,0.0013104,7.87,48.645,90,0,NaN,13.816,991.88,339.67,2e-3,0.044901
0.052,0.24274,11.828,271.27,11.828,271.27,0,0,0,0,0,0,37.2,-80.6,9.7987,10.795,0,0,0,2097.5,391.99,0.61594,0.0079969,NaN,114.19,NaN,0.035448,1268780,589.81,0.26879,0.5235,0.63305,0.35859,0.044748,0.12016,NaN,NaN,NaN,NaN,NaN,NaN,NaN,NaN,0.001374,7.87,48.645,90,0,NaN,13.815,991.88,339.67,2e-3,0.045498
0.054,0.26694,12.37,269.8,12.37,269.8,0,0,0,0,0,0,37.2,-80.6,9.7987,10.338,0,0,0,2096.9,391.37,0.61589,0.0079968,NaN,114.18,NaN,0.037019,1325020,586.58,0.2904,0.52352,0.62713,0.35859,0.044756,0.12018,NaN,NaN,NaN,NaN,NaN,NaN,NaN,NaN,0.001437,7.87,48.645,90,0,NaN,13.815,991.87,339.67,2e-3,0.046279
0.056,0.29222,12.91,268.47,12.91,268.47,0,0,0,0,0,0,37.2,-80.6,9.7987,9.9213,0,0,0,2096.3,390.76,0.61585,0.0079967,NaN,114.17,NaN,0.038584,1381032,583.65,0.31268,0.52354,0.62158,0.35858,0.044764,0.12019,NaN,NaN,NaN,NaN,NaN,NaN,NaN,NaN,0.0014997,7.87,48.645,90,0,NaN,13.815,991.87,339.67,2e-3,0.047028
0.058,0.31858,13.447,267.14,13.447,267.14,0,0,0,0,0,0,37.2,-80.6,9.7987,9.5387,0,0,0,2095.7,390.17,0.61581,0.0079966,NaN,114.17,NaN,0.040143,1436835,580.71,0.33565,0.52356,0.61642,0.35858,0.044772,0.12021,NaN,NaN,NaN,NaN,NaN,NaN,NaN,NaN,0.0015621,7.87,48.645,90,0,NaN,13.815,991.87,339.67,2e-3,0.047618
0.06,0.34601,13.981,265.8,13.981,265.8,0,0,0,0,0,0,37.2,-80.6,9.7987,9.1864,0,0,0,2095.1,389.57,0.61577,0.0079965,NaN,114.16,NaN,0.041696,1492419,577.78,0.3593,0.52358,0.61161,0.35857,0.044781,0.12023,NaN,NaN,NaN,NaN,NaN,NaN,NaN,NaN,0.0016242,7.87,48.645,90,0,NaN,13.815,991.86,339.67,2e-3,0.048215
0.062,0.3745,14.513,264.47,14.513,264.47,0,0,0,0,0,0,37.2,-80.6,9.7987,8.8611,0,0,0,2094.5,388.97,0.61573,0.0079964,NaN,114.15,NaN,0.043243,1547778,574.85,0.38363,0.5236,0.60714,0.35857,0.04479,0.12024,NaN,NaN,NaN,NaN,NaN,NaN,NaN,NaN,0.001686,7.87,48.645,90,0,NaN,13.815,991.86,339.67,2e-3,0.048801
0.064,0.40406,15.042,263.14,15.042,263.14,0,0,0,0,0,0,37.2,-80.6,9.7987,8.5597,0,0,0,2093.9,388.38,0.6157,0.0079963,NaN,114.15,NaN,0.044783,1602905,571.91,0.40863,0.52362,0.60299,0.35856,0.0448,0.12026,NaN,NaN,NaN,NaN,NaN,NaN,NaN,NaN,0.0017474,7.87,48.645,90,0,NaN,13.814,991.86,339.67,2e-3,0.049409
0.066,0.43467,15.569,261.8,15.569,261.8,0,0,0,0,0,0,37.2,-80.6,9.7987,8.2798,0,0,0,2093.3,387.78,0.61566,0.0079962,NaN,114.14,NaN,0.046317,1657794,568.98,0.4343,0.52365,0.59914,0.35856,0.044809,0.12028,NaN,NaN,NaN,NaN,NaN,NaN,NaN,NaN,0.0018086,7.87,48.645,90,0,NaN,13.814,991.85,339.67,2e-3,0.049987
0.068,0.46633,16.092,260.59,16.092,260.59,0,0,0,0,0,0,37.2,-80.6,9.7987,8.0191,0,0,0,2092.7,387.18,0.61562,0.0079961,NaN,114.13,NaN,0.047844,1712442,566.31,0.46064,0.52367,0.59556,0.35855,0.044819,0.1203,NaN,NaN,NaN,NaN,NaN,NaN,NaN,NaN,0.0018694,7.87,48.645,90,0,NaN,13.814,991.85,339.67,2e-3,0.050636
0.07,0.49903,16.614,260.14,16.614,260.14,0,0,0,0,0,0,37.2,-80.6,9.7987,7.7757,0,0,0,2092.1,386.59,0.61558,0.007996,NaN,114.13,NaN,0.049365,1766869,565.24,0.48765,0.52369,0.59223,0.35855,0.044829,0.12032,NaN,NaN,NaN,NaN,NaN,NaN,NaN,NaN,0.00193,7.87,48.645,90,0,NaN,13.814,991.85,339.67,2e-3,0.051273
0.072,0.53278,17.134,259.82,17.134,259.82,0,0,0,0,0,0,37.2,-80.6,9.7987,7.5473,0,0,0,2091.6,386.01,0.61554,0.0079958,NaN,114.12,NaN,0.050884,1821231,564.43,0.5154,0.52372,0.58912,0.35854,0.04484,0.12034,NaN,NaN,NaN,NaN,NaN,NaN,NaN,NaN,0.0019904,7.87,48.645,90,0,NaN,13.814,991.84,339.67,2e-3,0.051914
0.074,0.56757,17.654,259.49,17.654,259.49,0,0,0,0,0,0,37.2,-80.6,9.7987,7.3323,0,0,0,2091,385.43,0.6155,0.0079957,NaN,114.11,NaN,0.052402,1875553,563.62,0.54391,0.52374,0.58622,0.35854,0.04485,0.12036,NaN,NaN,NaN,NaN,NaN,NaN,NaN,NaN,0.0020508,7.87,48.645,90,0,NaN,13.813,991.84,339.67,2e-3,0.052506
0.076,0.60339,18.173,259.16,18.173,259.16,0,0,0,0,0,0,37.2,-80.6,9.7987,7.1297,0,0,0,2090.4,384.85,0.61546,0.0079956,NaN,114.11,NaN,0.053918,1929831,562.81,0.57318,0.52377,0.5835,0.35853,0.044862,0.12038,NaN,NaN,NaN,NaN,NaN,NaN,NaN,NaN,0.0021111,7.87,48.645,90,0,NaN,13.813,991.83,339.67,2e-3,0.053069
0.078,0.64026,18.691,258.84,18.691,258.84,0,0,0,0,0,0,37.2,-80.6,9.7987,6.9385,0,0,0,2089.8,384.28,0.61542,0.0079955,NaN,114.1,NaN,0.055434,1984062,562,0.6032,0.5238,0.58096,0.35853,0.044873,0.1204,NaN,NaN,NaN,NaN,NaN,NaN,NaN,NaN,0.0021713,7.87,48.645,90,0,NaN,13.813,991.83,339.67,2e-3,0.053665
0.08,0.67816,19.209,258.51,19.209,258.51,0,0,0,0,0,0,37.2,-80.6,9.7987,6.7576,0,0,0,2089.2,383.7,0.61538,0.0079954,NaN,114.1,NaN,0.056948,2038246,561.19,0.63399,0.52383,0.57858,0.35852,0.044885,0.12042,NaN,NaN,NaN,NaN,NaN,NaN,NaN,NaN,0.0022315,7.87,48.645,90,0,NaN,13.813,991.82,339.67,2e-3,0.054255
0.082,0.71709,19.726,258.18,19.726,258.18,0,0,0,0,0,0,37.2,-80.6,9.7987,6.5863,0,0,0,2088.7,383.12,0.61534,0.0079953,NaN,114.09,NaN,0.05846,2092379,560.38,0.66554,0.52385,0.57634,0.35851,0.044897,0.12044,NaN,NaN,NaN,NaN,NaN,NaN,NaN,NaN,0.0022915,7.87,48.645,90,0,NaN,13.812,991.82,339.67,2e-3,0.054787
0.084,0.75706,20.243,257.85,20.243,257.85,0,0,0,0,0,0,37.2,-80.6,9.7987,6.4239,0,0,0,2088.1,382.54,0.6153,0.0079952,NaN,114.08,NaN,0.059972,2146462,559.58,0.69784,0.52388,0.57425,0.35851,0.044909,0.12047,NaN,NaN,NaN,NaN,NaN,NaN,NaN,NaN,0.0023515,7.87,48.645,90,0,NaN,13.812,991.82,339.67,2e-3,0.055314
0.086,0.79806,20.758,257.52,20.758,257.52,0,0,0,0,0,0,37.2,-80.6,9.7987,6.2697,0,0,0,2087.5,381.96,0.61527,0.0079951,NaN,114.08,NaN,0.061481,2200491,558.77,0.7309,0.52391,0.57228,0.3585,0.044922,0.12049,NaN,NaN,NaN,NaN,NaN,NaN,NaN,NaN,0.0024115,7.87,48.645,90,0,NaN,13.812,991.81,339.67,2e-3,0.055862
0.088,0.8401,21.274,257.19,21.274,257.19,0,0,0,0,0,0,37.2,-80.6,9.7987,6.123,0,0,0,2086.9,381.39,0.61523,0.007995,NaN,114.07,NaN,0.06299,2254465,557.96,0.76472,0.52394,0.57043,0.35849,0.044935,0.12052,NaN,NaN,NaN,NaN,NaN,NaN,NaN,NaN,0.0024713,7.87,48.645,90,0,NaN,13.812,991.81,339.67,2e-3,0.056477
0.09,0.88316,21.788,256.86,21.788,256.86,0,0,0,0,0,0,37.2,-80.6,9.7987,5.9834,0,0,0,2086.4,380.81,0.61519,0.0079949,NaN,114.06,NaN,0.064496,2308385,557.15,0.79929,0.52397,0.56869,0.35849,0.044948,0.12054,NaN,NaN,NaN,NaN,NaN,NaN,NaN,NaN,0.0025311,7.87,48.645,90,0,NaN,13.811,991.8,339.67,2e-3,0.057156
0.092,0.92725,22.302,256.53,22.302,256.53,0,0,0,0,0,0,37.2,-80.6,9.7987,5.8503,0,0,0,2085.8,380.23,0.61515,0.0079948,NaN,114.06,NaN,0.066002,2362247,556.34,0.83461,0.52401,0.56705,0.35848,0.044961,0.12057,NaN,NaN,NaN,NaN,NaN,NaN,NaN,NaN,0.0025908,7.87,48.645,90,0,NaN,13.811,991.8,339.67,2e-3,0.057758
0.094,0.97236,22.815,256.2,22.815,256.2,0,0,0,0,0,0,37.2,-80.6,9.7987,5.7234,0,0,0,2085.2,379.65,0.61511,0.0079947,NaN,114.05,NaN,0.067505,2416051,555.53,0.87068,0.52404,0.5655,0.35847,0.044975,0.12059,NaN,NaN,NaN,NaN,NaN,NaN,NaN,NaN,0.0026504,7.87,48.645,90,0,NaN,13.811,991.79,339.67,2e-3,0.058466
# Event LAUNCHROD occurred at t=0.096 seconds
0.096,1.0185,23.328,255.87,23.328,255.87,0,0,0,0,0,0.93263,37.2,-80.6,9.7987,5.6021,0,0,0,2084.6,379.07,0.61507,0.0079946,113.6,114.04,-0.056342,0.069007,2469797,554.58,0.90751,0.52407,0.56404,0.35846,0.044989,0.12062,1.2048,-0.067949,-1.9026e-4,0,0,0,0,0,0.0027099,7.87,48.645,90,0,NaN,13.81,991.78,339.67,3e-3,0.059152
0.099,1.0896,24.095,255.69,24.095,255.69,-4.2339e-6,0,4.2339e-6,-180,0.0028348,0.957,37.2,-80.6,9.7987,5.4233,0,-0.0018745,-5.8174e-6,2083.9,378.35,0.61502,0.0079945,113.79,114.04,-0.031496,0.071257,2550287,554.19,0.96399,0.52412,0.56192,0.35845,0.045011,0.12066,1.1591,-0.036841,-4.2042e-4,0,0,0,0,0,0.0027991,7.87,48.645,90,0,NaN,13.81,991.78,339.67,0.0045,0.059868
0.1035,1.2007,25.246,255.69,25.246,255.69,-2.6794e-5,0,2.6794e-5,-180,0.0072156,0.98875,37.2,-80.6,9.7987,5.1546,0,-0.0026814,-8.7761e-6,2082.8,377.28,0.61495,0.0079943,114.08,114.02,0.0064634,0.074628,2670926,553.97,1.0515,0.5242,0.55881,0.35844,0.045045,0.12072,1.0912,0.006771,-4.9069e-4,0,0,0,0,0,0.0029328,7.87,48.645,90,0,NaN,13.809,991.76,339.67,0.00675,0.060464
0.11025,1.3769,26.973,255.67,26.973,255.68,-9.8372e-5,0,9.8372e-5,-180,0.014043,1.0336,37.2,-80.6,9.7987,4.7853,0,9.1398e-4,1.4585e-5,2081.2,375.67,0.61484,0.007994,114.48,114.01,0.060082,0.079688,2851964,553.63,1.1901,0.52433,0.55471,0.35841,0.045099,0.12083,0.99966,0.06054,2.7032e-4,0,0,0,0,0,0.0031334,7.87,48.645,90,0,NaN,13.808,991.74,339.67,0.01,0.061012
0.12025,1.6594,29.531,255.65,29.531,255.65,-2.916e-4,0,2.916e-4,-180,0.024709,1.098,37.2,-80.6,9.7987,4.3157,0,0.016754,2.8407e-5,2078.8,373.28,0.61468,0.0079936,115.01,113.98,0.13098,0.08719,3120383,553.24,1.4121,0.52454,0.54981,0.35836,0.045185,0.12099,0.88627,0.11591,3.4073e-4,0,0,0,0,1.314e-7,0.0034306,7.87,48.645,90,-0.12952,NaN,13.806,991.71,339.67,0.01,0.061543
0.13025,1.9675,32.09,255.64,32.09,255.65,-5.9465e-4,0,5.9465e-4,-180,0.036004,1.1594,37.2,-80.6,9.7987,3.9192,0,0.04501,4.4358e-7,2076,370.42,0.61449,0.007993,115.48,113.95,0.19409,0.094698,3389005,552.71,1.6542,0.52476,0.546,0.35831,0.04528,0.12117,0.79311,0.1538,1.2778e-4,0,0,0,0,8.0396e-7,0.0037279,7.87,48.645,90,-0.047389,NaN,13.804,991.67,339.66,0.01,0.062082
0.14025,2.3012,34.649,255.27,34.649,255.28,-0.0010137,0,0.0010137,-180,0.047894,1.2169,37.2,-80.6,9.7987,3.5796,0,0.085554,-2.3304e-5,2073.1,367.57,0.6143,0.0079925,115.89,113.92,0.25031,0.10221,3657729,551.44,1.9164,0.525,0.54301,0.35826,0.045382,0.12136,0.71521,0.17928,-1.93e-4,0,0,0,0,2.4935e-6,0.0040251,7.87,48.645,89.999,-0.0067015,NaN,13.802,991.63,339.66,0.01,0.062604
0.15025,2.6605,37.204,254.84,37.204,254.84,-0.0015544,0,0.0015544,-180,0.060336,1.2696,37.2,-80.6,9.7987,3.2856,0,0.1382,-5.8556e-5,2070.3,364.73,0.6141,0.007992,116.25,113.88,0.30079,0.10971,3926142,550.07,2.1984,0.52526,0.54064,0.3582,0.045493,0.12156,0.64919,0.19494,-2.1155e-4,0,0,0,0,5.6467e-6,0.004322,7.87,48.645,89.998,0.0068426,NaN,13.8,991.59,339.66,0.01,0.063139
0.16025,3.0453,39.755,254.42,39.755,254.42,-0.0022221,0,0.0022221,-180,0.073292,1.3195,37.2,-80.6,9.7987,3.0336,0,0.20253,-4.1384e-5,2067.4,361.89,0.61391,0.0079915,116.57,113.85,0.34562,0.11721,4194176,548.74,2.5003,0.52554,0.53881,0.35814,0.045611,0.12179,0.59366,0.20543,-2.9936e-5,0,0,0,0,1.0626e-5,0.0046183,7.87,48.645,89.996,0.0084362,NaN,13.797,991.55,339.66,0.01,0.063666
0.17025,3.4556,42.301,254.33,42.302,254.33,-0.0030218,-6.8894e-9,0.0030218,-180,0.086717,1.3634,37.2,-80.6,9.7987,2.8106,0,0.27842,4.1923e-5,2064.6,359.05,0.61372,0.007991,116.86,113.82,0.38656,0.12469,4461803,548.14,2.822,0.52584,0.53735,0.35808,0.045737,0.12202,0.54533,0.21064,1.8837e-4,0,0,0,0,1.7744e-5,0.0049141,7.87,48.645,89.994,0.0054637,NaN,13.795,991.5,339.66,0.01,0.064194
0.18025,3.8913,44.847,254.35,44.847,254.35,-0.0039578,-9.4842e-9,0.0039578,-180,0.10055,1.4007,37.2,-80.6,9.7987,2.6113,0,0.3657,3.5265e-5,2061.8,356.22,0.61352,0.0079905,117.13,113.79,0.42424,0.13217,4729366,547.76,3.1638,0.52615,0.53618,0.35801,0.045871,0.12227,0.50277,0.2137,-4.733e-4,0,0,0,0,2.7245e-5,0.0052098,7.87,48.645,89.991,0.0024951,NaN,13.792,991.45,339.66,0.01,0.064721
0.19025,4.3525,47.393,254.35,47.393,254.35,-0.0050339,-1.279e-8,0.0050339,-180,0.11472,1.4305,37.2,-80.6,9.7987,2.4317,0,0.46395,-3.1736e-6,2058.9,353.39,0.61333,0.00799,117.37,113.76,0.45918,0.13966,4996958,547.39,3.526,0.52648,0.53525,0.35794,0.046013,0.12254,0.46494,0.21362,3.9099e-4,0,0,0,0,3.9276e-5,0.0055055,7.87,48.645,89.986,5.1877e-5,NaN,13.789,991.39,339.65,0.01,0.065271
0.20025,4.8391,49.938,254.32,49.938,254.32,-0.006253,-1.6994e-8,0.006253,-180,0.12915,1.4524,37.2,-80.6,9.7987,2.2689,0,0.57292,-1.0001e-4,2056.1,350.56,0.61314,0.0079894,117.59,113.72,0.49174,0.14714,5264563,546.96,3.9085,0.52684,0.53453,0.35786,0.046163,0.12281,0.43108,0.2119,-4.8658e-4,0,0,0,0,5.3955e-5,0.0058012,7.87,48.645,89.981,0.0020577,NaN,13.786,991.34,339.65,0.01,0.0658
0.21025,5.3513,52.483,254.06,52.484,254.06,-0.0076175,-2.2034e-8,0.0076175,-180,0.14379,1.474,37.2,-80.6,9.7987,2.1305,0,0.6925,-5.6287e-5,2053.3,347.74,0.61294,0.0079889,117.79,113.69,0.52047,0.15463,5532170,546.08,4.3121,0.52721,0.53404,0.35778,0.046321,0.12311,0.40261,0.20991,2.94e-4,0,0,0,0,7.1382e-5,0.0060969,7.87,48.645,89.975,0.0024305,NaN,13.782,991.28,339.65,0.01,0.06633
0.22025,5.8888,55.026,253.74,55.026,253.74,-0.0091294,-2.7665e-8,0.0091294,-180,0.15861,1.4864,37.2,-80.6,9.7987,2.003,0,0.82235,-1.6753e-4,2050.5,344.93,0.61275,0.0079884,117.97,113.66,0.54761,0.16211,5799489,545.1,4.7358,0.5276,0.53367,0.35769,0.046488,0.12342,0.37664,0.20644,1.4023e-4,0,0,0,0,9.1588e-5,0.0063923,7.87,48.645,89.967,0.0036276,NaN,13.779,991.21,339.65,0.01,0.06686
0.23025,6.4518,57.565,253.4,57.565,253.41,-0.01079,-3.3443e-8,0.01079,-180,0.1735,1.4888,37.2,-80.6,9.7987,1.8847,0,0.96223,-6.0249e-5,2047.7,342.12,0.61255,0.0079879,118.14,113.63,0.57339,0.16958,6066454,544.12,5.1796,0.528,0.53341,0.3576,0.046662,0.12374,0.35279,0.2024,-2.8492e-4,0,0,0,0,1.1459e-4,0.0066873,7.87,48.645,89.958,0.0048268,NaN,13.775,991.15,339.65,0.01,0.067413
0.24025,7.0401,60.101,253.06,60.101,253.06,-0.012599,-3.8955e-8,0.012599,-180,0.18836,1.4804,37.2,-80.6,9.7986,1.7744,0,1.1117,-9.3412e-5,2044.8,339.3,0.61236,0.0079874,118.3,113.6,0.59801,0.17704,6333048,543.15,5.6433,0.52843,0.53325,0.35751,0.046845,0.12407,0.33071,0.19727,2.5332e-4,0,0,0,0,1.4034e-4,0.0069819,7.87,48.645,89.948,0.0043206,NaN,13.771,991.08,339.64,0.01,0.067941
0.25025,7.6538,62.634,252.91,62.634,252.92,-0.014557,-4.3774e-8,0.014557,-180,0.20307,1.4605,37.2,-80.6,9.7986,1.6711,0,1.2706,-9.0476e-5,2042,336.49,0.61216,0.0079869,118.46,113.56,0.62158,0.1845,6599258,542.59,6.127,0.52888,0.53317,0.35741,0.047036,0.12443,0.31022,0.19276,3.565e-4,0,0,0,0,1.6881e-4,0.0072761,7.87,48.645,89.936,0.0043497,NaN,13.767,991.01,339.64,0.01,0.068502
0.26025,8.2927,65.164,253.02,65.165,253.03,-0.01666,-4.7534e-8,0.01666,-180,0.2176,1.4407,37.2,-80.6,9.7986,1.5844,0,1.439,-1.8958e-4,2039.2,333.69,0.61197,0.0079864,118.59,113.53,0.64235,0.19194,6865320,542.58,6.6318,0.52934,0.53322,0.35731,0.047234,0.12479,0.29315,0.18833,-7.3382e-5,0,0,0,0,2.0004e-4,0.0075701,7.87,48.645,89.923,0.0046721,NaN,13.763,990.93,339.64,0.01,0.069023
0.27025,8.9571,67.696,253.13,67.697,253.13,-0.018908,-4.9619e-8,0.018908,-180,0.23186,1.4081,37.2,-80.6,9.7986,1.5016,0,1.6164,-1.9153e-5,2036.4,330.89,0.61177,0.0079859,118.71,113.5,0.66255,0.1994,7131467,542.58,7.1576,0.52982,0.53332,0.35721,0.047442,0.12517,0.27696,0.18339,1.4868e-4,0,0,0,0,2.339e-4,0.0078642,7.87,48.645,89.907,0.0045339,NaN,13.759,990.85,339.64,0.01,0.069547
0.28025,9.6467,70.229,253.22,70.23,253.22,-0.021296,-4.9561e-8,0.021296,-180,0.24573,1.3617,37.2,-80.6,9.7986,1.4222,0,1.8026,-6.5561e-5,2033.6,328.09,0.61158,0.0079854,118.84,113.47,0.68229,0.20685,7397685,542.58,7.7046,0.53032,0.53348,0.3571,0.047658,0.12556,0.26151,0.1785,-3.1769e-4,0,0,0,0,2.7032e-4,0.0081585,7.87,48.645,89.89,0.0040453,NaN,13.754,990.77,339.63,0.01,0.070075
0.29025,10.362,72.763,252.94,72.764,252.94,-0.02382,-4.7044e-8,0.02382,-180,0.25906,1.3014,37.2,-80.6,9.7986,1.3456,0,1.9966,2.1608e-5,2030.8,325.29,0.61138,0.0079849,118.96,113.43,0.70165,0.21431,7663958,541.84,8.2727,0.53084,0.53368,0.35699,0.047883,0.12597,0.24671,0.17297,4.726e-4,0,0,0,0,3.0895e-4,0.0084528,7.87,48.645,89.871,0.0035386,NaN,13.75,990.69,339.63,0.01,0.070601
0.30025,11.102,75.294,252.43,75.295,252.43,-0.026475,-4.1829e-8,0.026475,-180,0.27171,1.2257,37.2,-80.6,9.7986,1.2711,0,2.1982,1.0592e-6,2028,322.5,0.61119,0.0079844,119.07,113.4,0.72074,0.22176,7929894,540.65,8.8612,0.53138,0.53392,0.35687,0.048116,0.12639,0.23241,0.16691,-1.5977e-4,0,0,0,0,3.4976e-4,0.0087468,7.87,48.645,89.85,0.0030869,NaN,13.745,990.6,339.63,0.01,0.071134
0.31025,11.868,77.82,251.9,77.82,251.9,-0.029251,-3.4481e-8,0.029251,-180,0.28342,1.1156,37.2,-80.6,9.7986,1.188,0,2.4056,9.6578e-5,2025.3,319.71,0.61099,0.0079839,119.2,113.37,0.74158,0.2292,8195209,539.46,9.4688,0.53194,0.53417,0.35675,0.048358,0.12683,0.21653,0.16049,-2.388e-4,0,0,0,0,3.9214e-4,0.0090403,7.87,48.645,89.827,0.0023866,NaN,13.74,990.51,339.63,0.01,0.071662
0.32025,12.658,80.34,251.37,80.341,251.37,-0.032139,-2.5576e-8,0.032139,-180,0.29395,0.98747,37.2,-80.6,9.7986,1.1075,0,2.6173,-2.411e-4,2022.5,316.92,0.61079,0.0079834,119.33,113.34,0.76209,0.23662,8459927,538.29,10.096,0.53251,0.53446,0.35663,0.048607,0.12728,0.20124,0.15333,4.9614e-4,0,0,0,0,4.3555e-4,0.0093331,7.87,48.645,89.802,0.0021207,NaN,13.735,990.42,339.62,0.01,0.072193
0.33025,13.474,82.856,250.89,82.856,250.89,-0.035126,-1.4463e-8,0.035126,-180,0.3031,0.84059,37.2,-80.6,9.7986,1.0293,0,2.8328,-1.1507e-4,2019.7,314.14,0.6106,0.0079829,119.46,113.3,0.78231,0.24402,8724043,537.24,10.744,0.53311,0.53479,0.3565,0.048865,0.12774,0.18647,0.14547,-2.0432e-5,0,0,0,0,4.7971e-4,0.0096252,7.87,48.645,89.775,0.0023103,NaN,13.729,990.32,339.62,0.01,0.07273
0.34025,14.315,85.366,250.41,85.366,250.41,-0.038196,0,0.038196,-180,0.31068,0.67443,37.2,-80.6,9.7986,0.95299,0,3.0495,-3.1047e-4,2016.9,311.37,0.6104,0.0079824,119.58,113.27,0.80228,0.25142,8987605,536.22,11.412,0.53372,0.53517,0.35637,0.049132,0.12822,0.17216,0.13784,-3.7103e-4,0,0,0,0,5.2372e-4,0.0099169,7.87,48.645,89.746,0.0025132,NaN,13.724,990.23,339.62,0.01,0.073259
0.35025,15.182,87.871,249.92,87.872,249.92,-0.041334,1.7419e-8,0.041334,180,0.31651,0.48907,37.2,-80.6,9.7986,0.87868,0,3.2665,-1.5756e-4,2014.1,308.6,0.61021,0.0079819,119.71,113.24,0.82201,0.25879,9250613,535.19,12.099,0.53435,0.53559,0.35623,0.049407,0.12871,0.15829,0.12938,4.8417e-4,0,0,0,0,5.6714e-4,0.010208,7.87,48.645,89.714,0.0026221,NaN,13.718,990.12,339.61,0.01,0.073789
0.36025,16.073,90.372,249.41,90.372,249.41,-0.04452,4.0859e-8,0.04452,180,0.32048,0.30467,37.2,-80.6,9.7986,0.81541,0,3.4833,1.1033e-4,2011.4,305.83,0.61001,0.0079814,119.81,113.2,0.83973,0.26616,9513084,534.16,12.808,0.53499,0.53607,0.35609,0.04969,0.12921,0.14656,0.12281,-1.6309e-4,0,0,0,0,6.0974e-4,0.010498,7.87,48.645,89.68,0.0024158,NaN,13.713,990.02,339.61,0.01,0.074314
0.37025,16.989,92.867,248.66,92.867,248.66,-0.047737,6.9853e-8,0.047737,180,0.32251,0.1018,37.2,-80.6,9.7986,0.75283,0,3.6992,-1.6628e-5,2008.6,303.07,0.60981,0.0079809,119.92,113.17,0.85742,0.27351,9774966,532.67,13.536,0.53566,0.53658,0.35595,0.049982,0.12972,0.135,0.11505,-2.3912e-4,0,0,0,0,6.5123e-4,0.010788,7.87,48.645,89.644,0.0018964,NaN,13.707,989.91,339.61,0.01,0.074849
0.38025,17.93,95.355,247.75,95.355,247.75,-0.050963,1.037e-7,0.050963,180,0.3224,0.12005,37.2,-80.6,9.7986,0.69086,0,3.9128,3.1617e-4,2005.9,300.32,0.60962,0.0079804,120.03,113.14,0.87508,0.28083,10036000,530.88,14.284,0.53634,0.53712,0.35581,0.050282,0.13025,0.12361,0.10766,2.0242e-4,0,0,0,0,6.9112e-4,0.011077,7.87,48.645,89.606,0.0013511,NaN,13.7,989.8,339.6,0.01,0.07541
0.39025,18.896,97.833,246.82,97.834,246.83,-0.054177,1.4045e-7,0.054177,180,0.31997,0.36192,37.2,-80.6,9.7986,0.62946,0,4.122,3.0591e-4,2003.1,297.59,0.60942,0.0079799,120.13,113.11,0.89272,0.28813,10296016,529.09,15.05,0.53704,0.53769,0.35566,0.05059,0.13079,0.11237,0.099698,-4.5806e-4,0,0,0,0,7.286e-4,0.011365,7.87,48.645,89.566,7.0978e-4,NaN,13.694,989.69,339.6,0.01,0.07598
0.40025,19.887,100.3,245.89,100.3,245.89,-0.057354,1.7715e-7,0.057354,180,0.31502,0.62495,37.2,-80.6,9.7986,0.56815,0,4.3254,7.8102e-4,2000.4,294.85,0.60922,0.0079794,120.24,113.07,0.91044,0.29541,10554999,527.3,15.836,0.53776,0.53829,0.35551,0.050907,0.13134,0.10121,0.091587,-2.1379e-4,0,0,0,0,7.6329e-4,0.011652,7.87,48.645,89.524,-7.7794e-5,NaN,13.688,989.57,339.59,0.01,0.076562
0.41025,20.902,102.76,245.5,102.76,245.5,-0.060468,2.1028e-7,0.060468,180,0.30711,0.95713,37.2,-80.6,9.7986,0.49164,0,4.5179,0.0010863,1997.7,292.12,0.60903,0.0079789,120.37,113.04,0.9313,0.30265,10812883,526.63,16.639,0.53849,0.53889,0.35535,0.051231,0.13191,0.087327,0.080987,-1.9813e-4,0,0,0,0,7.9337e-4,0.011938,7.87,48.645,89.48,-0.0010879,NaN,13.681,989.45,339.59,0.01,0.07711
0.42025,21.942,105.22,245.59,105.22,245.6,-0.063485,2.3253e-7,0.063485,180,0.29577,1.3154,37.2,-80.6,9.7986,0.4167,0,4.6934,0.001343,1994.9,289.39,0.60883,0.0079784,120.5,113.01,0.95198,0.30989,1.107e7,526.95,17.462,0.53924,0.53953,0.35519,0.051564,0.13248,0.07381,0.068976,2.5002e-4,0,0,0,0,8.1674e-4,0.012223,7.87,48.645,89.434,-0.0021406,NaN,13.674,989.33,339.59,0.01,0.077639
0.43025,23.006,107.67,245.68,107.67,245.68,-0.066371,2.3617e-7,0.066371,180,0.28074,1.6944,37.2,-80.6,9.7986,0.34337,0,4.8502,0.0019377,1992.2,286.67,0.60863,0.0079779,120.63,112.97,0.97247,0.31712,11327746,527.28,18.308,0.54001,0.5402,0.35503,0.051907,0.13307,0.060656,0.057988,1.3227e-4,0,0,0,0,8.3287e-4,0.012508,7.87,48.645,89.386,-0.0031223,NaN,13.667,989.21,339.58,0.01,0.078178
0.44025,24.095,110.13,245.75,110.13,245.76,-0.069087,2.1213e-7,0.069087,180,0.26182,2.0931,37.2,-80.6,9.7986,0.27174,0,4.9856,0.0022995,1989.5,283.95,0.60844,0.0079774,120.75,112.94,0.99275,0.32436,11585225,527.6,19.176,0.5408,0.54092,0.35486,0.052259,0.13368,0.047875,0.046688,1.0836e-4,0,0,0,0,8.412e-4,0.012794,7.87,48.645,89.337,-0.0041543,NaN,13.66,989.08,339.58,0.01,0.078697
0.45025,25.209,112.59,245.7,112.59,245.71,-0.071594,1.4966e-7,0.071594,180,0.23882,2.5077,37.2,-80.6,9.7986,0.20218,0,5.095,0.0033334,1986.8,281.23,0.60824,0.0079769,120.88,112.91,1.0127,0.33161,11842717,527.71,20.067,0.54161,0.54168,0.35469,0.052622,0.1343,0.03553,0.03502,-4.5616e-6,0,0,0,0,8.4059e-4,0.013079,7.87,48.645,89.286,-0.0051517,NaN,13.653,988.95,339.57,0.01,0.07924
0.46025,26.347,115.05,245.02,115.05,245.04,-0.07385,3.6219e-8,0.07385,180,0.21176,2.8966,37.2,-80.6,9.7986,0.14436,0,5.1802,0.0040037,1984.1,278.51,0.60804,0.0079764,120.99,112.88,1.0305,0.33885,1.21e7,526.59,20.981,0.54244,0.54247,0.35452,0.052994,0.13493,0.025318,0.025573,1.092e-4,0,0,0,0,8.322e-4,0.013365,7.87,48.645,89.235,-0.0060736,NaN,13.646,988.81,339.57,0.01,0.079762
0.47025,27.51,117.5,244.24,117.5,244.27,-0.075816,-1.4039e-7,0.075816,-180,0.18074,3.2967,37.2,-80.6,9.7986,0.088069,0,5.2394,0.0063621,1981.3,275.8,0.60785,0.007976,121.09,112.84,1.0479,0.34607,12356746,525.3,21.916,0.54329,0.5433,0.35434,0.053376,0.13557,0.015415,0.015545,3.5706e-4,0,0,0,0,8.162e-4,0.01365,7.87,48.645,89.183,-0.0066029,NaN,13.638,988.68,339.56,0.01,0.08029
0.48025,28.697,119.94,243.45,119.94,243.48,-0.077451,-3.9035e-7,0.077451,-180,0.14566,3.7072,37.2,-80.6,9.7986,0.033488,0,5.2712,0.016461,1978.6,273.09,0.60765,0.0079755,121.19,112.81,1.0652,0.35327,12612479,524,22.87,0.54415,0.54415,0.35416,0.053766,0.13622,0.0058507,0.0049707,2.4348e-4,0,0,0,0,7.9283e-4,0.013933,7.87,48.645,89.13,-0.0071146,NaN,13.63,988.54,339.56,0.01,0.080817
0.49025,29.909,122.38,242.56,122.38,242.6,-0.078715,-7.243e-7,0.078715,-180,0.10644,4.1243,37.2,-80.6,9.7986,0.01918,0,-5.2728,0.027493,1975.9,270.37,0.60745,0.007975,121.23,112.78,1.0741,0.36045,12867305,522.56,23.843,0.54503,0.54503,0.35398,0.054165,0.13689,0.0033507,0.0048006,1.9764e-4,0,0,0,0,-7.6205e-4,0.014216,7.87,48.645,89.077,-0.0076424,NaN,13.623,988.4,339.55,0.01,0.081342
0.50025,31.145,124.8,241.64,124.8,241.68,-0.079566,-1.154e-6,0.079566,-180,0.062998,4.5485,37.2,-80.6,9.7986,0.069987,0,-5.2428,0.0066677,1973.2,267.67,0.60725,0.0079745,121.16,112.74,1.0696,0.3676,13121125,521.05,24.836,0.54593,0.54594,0.35379,0.054573,0.13757,0.01226,0.013444,-1.164e-4,0,0,0,0,-7.2439e-4,0.014498,7.87,48.645,89.025,-0.0082609,NaN,13.615,988.25,339.55,0.01,0.081859
0.51025,32.405,127.22,241.22,127.22,241.27,-0.07996,-1.6947e-6,0.07996,-180,0.015067,5.0299,37.2,-80.6,9.7986,0.12879,0,-5.1766,0.0029056,1970.5,264.98,0.60705,0.007974,121.08,112.71,1.0635,0.37472,13373858,520.59,25.848,0.54684,0.54687,0.3536,0.05499,0.13825,0.022632,0.025116,4.03e-4,0,0,0,0,-6.7964e-4,0.014779,7.87,48.645,88.973,-0.0091914,NaN,13.606,988.1,339.54,0.01,0.082376
0.52025,33.689,129.63,240.95,129.63,241.01,-0.079851,-2.3661e-6,0.079851,-180,0.037695,5.5164,37.2,-80.6,9.7986,0.18432,0,-5.0688,0.0018607,1967.8,262.29,0.60686,0.0079735,121,112.68,1.0582,0.38183,13626080,520.43,26.882,0.54778,0.54783,0.35341,0.055417,0.13895,0.032486,0.035393,-4.4925e-4,0,0,0,0,-6.276e-4,0.015059,7.87,48.645,88.921,-0.010203,NaN,13.598,987.95,339.54,0.01,0.082902
0.53025,34.997,132.04,240.37,132.04,240.45,-0.07919,-3.1914e-6,0.07919,-180,0.09532,5.9952,37.2,-80.6,9.7986,0.23627,0,-4.9193,5.6781e-4,1965.2,259.61,0.60666,0.007973,120.94,112.64,1.0537,0.38894,13877942,519.7,27.937,0.54873,0.54882,0.35321,0.055854,0.13967,0.04176,0.044454,-4.6653e-4,0,0,0,0,-5.6976e-4,0.015339,7.87,48.645,88.871,-0.011049,NaN,13.59,987.8,339.53,0.01,0.083454
0.54025,36.33,134.44,239.75,134.44,239.84,-0.077929,-4.1932e-6,0.077929,-180,0.15771,6.4666,37.2,-80.6,9.7986,0.28439,0,-4.73,0.0017824,1962.5,256.93,0.60646,0.0079725,120.87,112.61,1.0501,0.39602,14129117,518.9,29.013,0.5497,0.54984,0.35301,0.0563,0.14039,0.0504,0.053023,-1.8881e-4,0,0,0,0,-5.0809e-4,0.015618,7.87,48.645,88.823,-0.011672,NaN,13.581,987.64,339.53,0.01,0.083962
0.55025,37.686,136.84,239.12,136.84,239.22,-0.076021,-5.3894e-6,0.076021,-180,0.22475,6.9248,37.2,-80.6,9.7986,0.32813,0,-4.5001,0.0017677,1959.8,254.25,0.60626,0.0079721,120.82,112.58,1.0474,0.40309,1.438e7,518.11,30.11,0.55069,0.55087,0.35281,0.056757,0.14112,0.058295,0.061616,-2.7779e-5,0,0,0,0,-4.4391e-4,0.015897,7.87,48.645,88.777,-0.011806,NaN,13.572,987.48,339.52,0.01,0.084515
0.56025,39.067,139.23,238.99,139.23,239.1,-0.07342,-6.7899e-6,0.07342,-179.99,0.296,7.3183,37.2,-80.6,9.7986,0.35615,0,-4.2329,0.0017592,1957.1,251.57,0.60606,0.0079716,120.79,112.54,1.048,0.41014,14629309,518.33,31.226,0.55169,0.55191,0.3526,0.057224,0.14187,0.063388,0.067033,-1.9853e-4,0,0,0,0,-3.7939e-4,0.016174,7.87,48.645,88.733,-0.011804,NaN,13.563,987.32,339.52,0.01,0.085059
0.57025,40.471,141.62,239.54,141.62,239.66,-0.070088,-8.4034e-6,0.070088,-179.99,0.37109,7.7061,37.2,-80.6,9.7985,0.38031,0,-3.9351,0.0021061,1954.4,248.89,0.60586,0.0079711,120.77,112.51,1.0494,0.41719,14878840,519.89,32.365,0.55272,0.55297,0.35239,0.057701,0.14263,0.067801,0.071764,-4.7645e-5,0,0,0,0,-3.169e-4,0.016452,7.87,48.645,88.692,-0.011588,NaN,13.554,987.16,339.51,0.01,0.085574
0.58025,41.899,144.02,240.07,144.02,240.2,-0.065986,-1.0233e-5,0.065986,-179.99,0.44993,8.0692,37.2,-80.6,9.7985,0.40045,0,-3.6084,0.0025832,1951.8,246.21,0.60566,0.0079706,120.75,112.47,1.0517,0.42426,15128867,521.44,33.53,0.55377,0.55404,0.35218,0.058192,0.1434,0.071497,0.075456,-1.1756e-4,0,0,0,0,-2.5768e-4,0.01673,7.87,48.645,88.655,-0.011083,NaN,13.545,986.99,339.51,0.01,0.086129
0.59025,43.351,146.42,239.65,146.42,239.8,-0.061077,-1.2273e-5,0.061077,-179.99,0.53226,8.3808,37.2,-80.6,9.7985,0.41643,0,-3.2541,9.9287e-4,1949.1,243.53,0.60546,0.0079701,120.74,112.44,1.0549,0.43134,15379365,521.17,34.722,0.55484,0.55514,0.35196,0.058695,0.14419,0.074448,0.07859,-3.7055e-5,0,0,0,0,-2.0275e-4,0.017009,7.87,48.645,88.62,-0.010605,NaN,13.535,986.82,339.5,0.01,0.08668
0.60025,44.827,148.82,238.63,148.82,238.79,-0.055331,-1.4519e-5,0.055331,-179.98,0.61755,8.644,37.2,-80.6,9.7985,0.42822,0,-2.8744,4.4172e-4,1946.4,240.84,0.60526,0.0079696,120.74,112.41,1.059,0.43841,15629340,519.75,35.934,0.55594,0.55625,0.35174,0.05921,0.14499,0.076645,0.081573,-7.769e-5,0,0,0,0,-1.5314e-4,0.017288,7.87,48.645,88.59,-0.010645,NaN,13.526,986.65,339.5,0.01,0.08722
0.61025,46.328,151.2,237.61,151.2,237.77,-0.048718,-1.6975e-5,0.048718,-179.98,0.70534,8.8821,37.2,-80.6,9.7985,0.43795,0,-2.4688,-3.8719e-4,1943.7,238.16,0.60506,0.0079692,120.74,112.37,1.0636,0.44545,15878148,518.33,37.166,0.55705,0.55738,0.35152,0.059735,0.14579,0.078469,0.083765,3.3974e-5,0,0,0,0,-1.0943e-4,0.017565,7.87,48.645,88.563,-0.010771,NaN,13.516,986.47,339.49,0.01,0.087744
0.62025,47.851,153.58,236.62,153.58,236.79,-0.041217,-1.965e-5,0.041217,-179.97,0.79531,9.0785,37.2,-80.6,9.7985,0.44315,0,-2.0416,-1.9283e-4,1941,235.48,0.60486,0.0079687,120.75,112.34,1.0691,0.45245,16125788,517.01,38.416,0.55818,0.55851,0.35129,0.06027,0.14661,0.079472,0.084774,-2.9151e-4,0,0,0,0,-7.2539e-5,0.017841,7.87,48.645,88.54,-0.011096,NaN,13.506,986.29,339.48,0.01,0.088289
0.63025,49.399,155.94,235.67,155.94,235.85,-0.032807,-2.2551e-5,0.032807,-179.96,0.88701,9.2297,37.2,-80.6,9.7985,0.44383,0,-1.5969,-3.1703e-4,1938.4,232.81,0.60466,0.0079682,120.77,112.3,1.0755,0.45944,16372300,515.79,39.684,0.55932,0.55966,0.35107,0.060815,0.14744,0.079649,0.085497,4.0019e-4,0,0,0,0,-4.3043e-5,0.018116,7.87,48.645,88.522,-0.011319,NaN,13.496,986.11,339.48,0.01,0.088813
0.64025,50.97,158.3,234.71,158.3,234.89,-0.023473,-2.5691e-5,0.023473,-179.94,0.97998,9.3308,37.2,-80.6,9.7985,0.43997,0,-1.1357,-0.0015498,1935.7,230.15,0.60446,0.0079677,120.79,112.27,1.0829,0.46639,16617721,514.57,40.971,0.56048,0.56081,0.35083,0.061371,0.14828,0.078997,0.085594,-1.1559e-5,0,0,0,0,-2.1125e-5,0.01839,7.87,48.645,88.508,-0.01185,NaN,13.486,985.93,339.47,0.01,0.089338
0.65025,52.565,160.65,233.75,160.65,233.93,-0.013205,-2.9083e-5,0.013205,-179.87,1.0737,9.3792,37.2,-80.6,9.7985,0.4316,0,-0.66428,-0.001263,1933,227.49,0.60425,0.0079672,120.82,112.24,1.0912,0.47331,16862038,513.37,42.277,0.56166,0.56198,0.3506,0.061938,0.14912,0.07752,0.08446,4.3849e-5,0,0,0,0,-7.018e-6,0.018662,7.87,48.645,88.499,-0.012463,NaN,13.475,985.74,339.46,0.01,0.089862
0.66025,54.183,162.98,232.88,162.99,233.07,-0.0019982,-3.2744e-5,0.0019984,-179.06,1.1676,9.3668,37.2,-80.6,9.7985,0.4177,0,-0.18738,-0.0015978,1930.4,224.84,0.60405,0.0079668,120.86,112.2,1.1006,0.48021,17105257,512.38,43.601,0.56286,0.56316,0.35037,0.062516,0.14998,0.075033,0.082351,-3.6067e-4,0,0,0,0,-5.4251e-7,0.018934,7.87,48.645,88.495,-0.013055,NaN,13.465,985.55,339.46,0.01,0.090406
0.67025,55.825,165.31,232.03,165.31,232.22,0.010146,-3.6689e-5,0.010146,-0.20719,1.2611,9.2982,37.2,-80.6,9.7985,0.39964,0,0.28892,-8.2643e-4,1927.7,222.19,0.60385,0.0079663,120.91,112.17,1.1109,0.48708,17347470,511.43,44.943,0.56407,0.56435,0.35013,0.063105,0.15084,0.071784,0.080164,-3.836e-4,0,0,0,0,1.2537e-6,0.019205,7.87,48.645,88.496,-0.013498,NaN,13.454,985.36,339.45,0.01,0.090924
0.68025,57.489,167.63,231.16,167.64,231.34,0.02322,-4.0929e-5,0.02322,-0.10099,1.3536,9.1712,37.2,-80.6,9.7985,0.37759,0,0.76047,7.3794e-4,1925.1,219.55,0.60365,0.0079658,120.96,112.13,1.122,0.49393,17588686,510.47,46.305,0.56531,0.56555,0.34989,0.063705,0.15172,0.067809,0.076549,4.6669e-4,0,0,0,0,8.4469e-6,0.019474,7.87,48.645,88.501,-0.013452,NaN,13.443,985.16,339.45,0.01,0.091533
0.69025,59.177,169.94,230.13,169.95,230.3,0.037212,-4.546e-5,0.037212,-0.069996,1.4445,8.9824,37.2,-80.6,9.7985,0.35181,0,1.2206,-1.9348e-4,1922.5,216.91,0.60345,0.0079653,121.02,112.1,1.134,0.50075,17828882,509.22,47.686,0.56656,0.56677,0.34964,0.064317,0.1526,0.063155,0.071508,2.3902e-4,0,0,0,0,2.1174e-5,0.019743,7.87,48.645,88.511,-0.013367,NaN,13.432,984.96,339.44,0.01,0.092096
0.70025,60.888,172.24,229.04,172.25,229.2,0.052103,-5.0271e-5,0.052103,-0.055281,1.5333,8.7363,37.2,-80.6,9.7985,0.32275,0,1.6598,-6.0051e-4,1919.8,214.28,0.60325,0.0079649,121.09,112.07,1.1466,0.50754,18067890,507.89,49.085,0.56783,0.56801,0.3494,0.064941,0.15349,0.057909,0.066632,1.3193e-4,0,0,0,0,3.8111e-5,0.02001,7.87,48.645,88.525,-0.013431,NaN,13.421,984.76,339.43,0.01,0.092617
0.71025,62.622,174.53,227.94,174.54,228.1,0.067869,-5.5358e-5,0.067869,-0.046734,1.6195,8.4805,37.2,-80.6,9.7985,0.29607,0,2.0781,-0.0015631,1917.2,211.66,0.60304,0.0079644,121.15,112.03,1.1589,0.5143,18305613,506.56,50.502,0.56911,0.56926,0.34915,0.065575,0.15439,0.053102,0.061672,-3.1788e-4,0,0,0,0,5.8188e-5,0.020276,7.87,48.645,88.544,-0.01359,NaN,13.41,984.56,339.43,0.01,0.093146
0.72025,64.379,176.81,227.33,176.82,227.47,0.084484,-6.072e-5,0.084484,-0.04118,1.703,8.1834,37.2,-80.6,9.7985,0.26636,0,2.4743,-0.0010913,1914.6,209.04,0.60284,0.0079639,121.22,112,1.172,0.52102,18542072,506.18,51.936,0.57041,0.57054,0.3489,0.066222,0.15529,0.04775,0.056001,-2.9127e-4,0,0,0,0,8.0376e-5,0.020541,7.87,48.645,88.567,-0.013783,NaN,13.399,984.35,339.42,0.01,0.093667
0.73025,66.158,179.08,227.15,179.09,227.29,0.10192,-6.6354e-5,0.10192,-0.037303,1.7832,7.8456,37.2,-80.6,9.7985,0.23401,0,2.8411,-0.0013037,1912,206.42,0.60264,0.0079634,121.29,111.96,1.1857,0.52773,18777777,506.67,53.392,0.57173,0.57183,0.34865,0.066881,0.15621,0.041924,0.049723,4.2371e-4,0,0,0,0,1.033e-4,0.020805,7.87,48.645,88.593,-0.013757,NaN,13.387,984.15,339.41,0.01,0.094207
0.74025,67.96,181.35,226.97,181.36,227.09,0.12013,-7.2245e-5,0.12014,-0.034456,1.8597,7.4596,37.2,-80.6,9.7985,0.19946,0,3.1671,-8.7767e-4,1909.4,203.81,0.60244,0.007963,121.37,111.93,1.1999,0.53443,19013186,507.16,54.871,0.57308,0.57315,0.34839,0.067555,0.15713,0.03571,0.042741,3.6843e-4,0,0,0,0,1.2517e-4,0.021069,7.87,48.645,88.623,-0.013693,NaN,13.375,983.93,339.4,0.01,0.094733
0.75025,69.785,183.62,226.53,183.63,226.64,0.1391,-7.838e-5,0.1391,-0.032285,1.9322,7.0229,37.2,-80.6,9.7985,0.16309,0,3.4507,-0.0017463,1906.7,201.19,0.60224,0.0079625,121.45,111.89,1.2147,0.54113,19248286,507.18,56.374,0.57444,0.57449,0.34813,0.068244,0.15807,0.029176,0.035768,8.6678e-5,0,0,0,0,1.4494e-4,0.021333,7.87,48.645,88.657,-0.013744,NaN,13.363,983.72,339.4,0.01,0.095319
0.76025,71.633,185.88,225.86,185.89,225.95,0.15876,-8.4747e-5,0.15876,-0.030584,1.9999,6.4931,37.2,-80.6,9.7985,0.12025,0,3.6808,7.0176e-4,1904.1,198.58,0.60203,0.007962,121.55,111.86,1.2309,0.54782,19482844,506.79,57.901,0.57583,0.57586,0.34787,0.068948,0.15901,0.02149,0.025937,-3.0579e-4,0,0,0,0,1.6092e-4,0.021596,7.87,48.645,88.692,-0.013228,NaN,13.351,983.5,339.39,0.01,0.09588
0.77025,73.503,188.14,225.17,188.15,225.25,0.17908,-9.1313e-5,0.17908,-0.029216,2.0621,5.9343,37.2,-80.6,9.7984,0.077224,0,3.8447,0.0035672,1901.5,195.97,0.60183,0.0079615,121.64,111.82,1.2473,0.55448,19716575,506.39,59.449,0.57724,0.57725,0.34761,0.069666,0.15997,0.013787,0.016531,-2.4501e-4,0,0,0,0,1.7138e-4,0.021858,7.87,48.645,88.73,-0.01122,NaN,13.339,983.28,339.38,0.01,0.096416
0.78025,75.395,190.39,224.47,190.4,224.54,0.19999,-9.8008e-5,0.19999,-0.028079,2.1186,5.3558,37.2,-80.6,9.7984,0.034692,0,3.9415,0.0082389,1898.9,193.35,0.60163,0.0079611,121.74,111.79,1.2638,0.56113,19949463,505.99,61.018,0.57867,0.57868,0.34734,0.070399,0.16093,0.0061874,0.0076712,1.2429e-4,0,0,0,0,1.7589e-4,0.02212,7.87,48.645,88.769,-0.0086135,NaN,13.327,983.06,339.38,0.01,0.096945
0.79025,77.311,192.63,223.73,192.65,223.78,0.22143,-1.0475e-4,0.22143,-0.027104,2.1693,4.7667,37.2,-80.6,9.7984,0.0066729,0,-3.9646,0.03749,1896.3,190.74,0.60142,0.0079606,121.81,111.75,1.2773,0.56775,20181491,505.53,62.609,0.58013,0.58013,0.34708,0.071147,0.1619,0.0011897,0.0014687,-3.312e-4,0,0,0,0,-1.7384e-4,0.02238,7.87,48.645,88.809,-0.0062274,NaN,13.314,982.84,339.37,0.01,0.097474
0.80025,79.248,194.87,222.96,194.88,223,0.24335,-1.1145e-4,0.24335,-0.026241,2.214,4.1762,37.2,-80.6,9.7984,0.046202,0,-3.9142,0.0051087,1893.7,188.13,0.60122,0.0079601,121.77,111.72,1.277,0.57436,20412612,505.06,64.222,0.5816,0.5816,0.3468,0.07191,0.16288,0.0082583,0.010342,2.3952e-5,0,0,0,0,-1.6558e-4,0.02264,7.87,48.645,88.848,-0.0044085,NaN,13.302,982.61,339.36,0.01,0.098013
0.81025,81.208,197.1,222.17,197.11,222.2,0.26569,-1.1807e-4,0.26569,-0.025461,2.2528,3.5821,37.2,-80.6,9.7984,0.084394,0,-3.7884,0.002714,1891.1,185.52,0.60101,0.0079597,121.74,111.68,1.2771,0.58094,20642809,504.57,65.857,0.58309,0.58311,0.34653,0.072688,0.16387,0.015122,0.019137,-2.0154e-4,0,0,0,0,-1.5162e-4,0.022899,7.87,48.645,88.887,-0.0027573,NaN,13.289,982.38,339.35,0.01,0.098543
0.82025,83.19,199.32,221.12,199.33,221.14,0.28839,-1.2453e-4,0.28839,-0.024742,2.2858,3.005,37.2,-80.6,9.7984,0.11933,0,-3.587,0.0015278,1888.5,182.92,0.60081,0.0079592,121.71,111.65,1.278,0.58749,20872048,503.62,67.512,0.58461,0.58463,0.34626,0.073482,0.16487,0.021432,0.027976,-1.1351e-4,0,0,0,0,-1.3292e-4,0.023157,7.87,48.645,88.924,-0.0010198,NaN,13.276,982.15,339.34,0.01,0.099084
0.83025,85.194,201.53,219.94,201.54,219.96,0.31139,-1.3081e-4,0.31139,-0.024069,2.3132,2.4604,37.2,-80.6,9.7984,0.15038,0,-3.3137,0.0025884,1885.9,180.32,0.6006,0.0079587,121.69,111.61,1.2798,0.59402,2.11e7,502.46,69.186,0.58614,0.58618,0.34598,0.074292,0.16587,0.02707,0.034937,-2.0264e-4,0,0,0,0,-1.1096e-4,0.023414,7.87,48.645,88.958,4.2895e-4,NaN,13.263,981.91,339.34,0.01,0.099612
0.84025,87.22,203.73,218.75,203.74,218.76,0.33463,-1.3686e-4,0.33463,-0.023432,2.3353,1.9623,37.2,-80.6,9.7984,0.17704,0,-2.9727,0.0026334,1883.3,177.73,0.6004,0.0079583,121.67,111.58,1.2825,0.60051,21326706,501.3,70.879,0.5877,0.58775,0.3457,0.075116,0.16688,0.031932,0.040621,1.6309e-4,0,0,0,0,-8.7386e-5,0.023669,7.87,48.645,88.99,7.1626e-4,NaN,13.25,981.67,339.33,0.01,0.10017
0.85025,89.269,205.91,217.54,205.92,217.54,0.35808,-1.4267e-4,0.35808,-0.022829,2.3527,1.5222,37.2,-80.6,9.7984,0.19882,0,-2.572,0.001294,1880.7,175.14,0.60019,0.0079578,121.67,111.54,1.2863,0.60696,21551983,500.12,72.589,0.58927,0.58934,0.34542,0.075956,0.16789,0.035926,0.046647,-1.6614e-4,0,0,0,0,-6.4034e-5,0.023923,7.87,48.645,89.017,0.0012104,NaN,13.237,981.43,339.32,0.01,0.10069
0.86025,91.339,208.08,216.2,208.1,216.21,0.38168,-1.4825e-4,0.38168,-0.022254,2.3662,1.164,37.2,-80.6,9.7984,0.21416,0,-2.1207,0.0019933,1878.1,172.55,0.59999,0.0079573,121.67,111.51,1.2915,0.61338,21775849,498.75,74.316,0.59086,0.59095,0.34514,0.076811,0.16891,0.038758,0.049817,2.2162e-4,0,0,0,0,-4.2627e-5,0.024175,7.87,48.645,89.041,0.0015664,NaN,13.223,981.19,339.31,0.01,0.10123
0.87025,93.43,210.24,214.83,210.26,214.83,0.40539,-1.5358e-4,0.40539,-0.021706,2.3764,0.88237,37.2,-80.6,9.7984,0.22416,0,-1.6288,0.0043229,1875.5,169.98,0.59978,0.0079569,121.69,111.47,1.2979,0.61976,21998194,497.33,76.058,0.59248,0.59257,0.34486,0.077681,0.16993,0.040621,0.052816,-1.9807e-4,0,0,0,0,-2.4634e-5,0.024426,7.87,48.645,89.06,8.3551e-4,NaN,13.21,980.95,339.3,0.01,0.10176
0.88025,95.543,212.39,213.47,212.4,213.47,0.4292,-1.5869e-4,0.4292,-0.021185,2.3843,0.68582,37.2,-80.6,9.7984,0.22867,0,-1.1048,0.0032623,1873,167.41,0.59958,0.0079564,121.71,111.44,1.3054,0.6261,22218978,495.96,77.817,0.59411,0.5942,0.34458,0.078568,0.17096,0.041484,0.05435,-6.5748e-5,0,0,0,0,-1.1106e-5,0.024675,7.87,48.645,89.073,-8.315e-4,NaN,13.196,980.7,339.3,0.01,0.10228
0.89025,97.678,214.52,212.47,214.54,212.47,0.45307,-1.6364e-4,0.45307,-0.020694,2.3906,0.58493,37.2,-80.6,9.7984,0.2277,0,-0.56466,0.0047918,1870.4,164.84,0.59937,0.0079559,121.75,111.4,1.3141,0.6324,22438218,495.28,79.591,0.59575,0.59585,0.34429,0.07947,0.17199,0.041344,0.054661,4.108e-4,0,0,0,0,-2.8435e-6,0.024923,7.87,48.645,89.082,-0.0030118,NaN,13.182,980.45,339.29,0.01,0.10282
0.90025,99.834,216.65,211.57,216.66,211.57,0.47701,-1.6847e-4,0.47701,-0.020236,2.3963,0.57732,37.2,-80.6,9.7984,0.22147,0,-0.016277,0.0037738,1867.8,162.28,0.59917,0.0079555,121.79,111.37,1.3239,0.63867,22656288,494.82,81.383,0.59743,0.59752,0.34401,0.080391,0.17303,0.04024,0.053182,3.9411e-4,0,0,0,0,0,0.02517,7.87,48.645,89.085,-0.0055071,NaN,13.168,980.2,339.28,0.01,0.10335
0.91025,102.01,218.76,210.65,218.77,210.65,0.501,-1.7327e-4,0.501,-0.019815,2.4022,0.60665,37.2,-80.6,9.7984,0.21429,0,0.52979,0.0032065,1865.3,159.73,0.59896,0.007955,121.83,111.33,1.3339,0.64492,22873329,494.36,83.195,0.59912,0.5992,0.34372,0.081331,0.17407,0.03896,0.052014,-3.4647e-4,0,0,0,0,2.4072e-6,0.025415,7.87,48.645,89.082,-0.0075065,NaN,13.154,979.94,339.27,0.01,0.10386
0.92025,104.21,220.86,209.73,220.88,209.73,0.52505,-1.7808e-4,0.52505,-0.019433,2.4088,0.73125,37.2,-80.6,9.7983,0.20201,0,1.0682,0.0057213,1862.7,157.18,0.59876,0.0079545,121.88,111.3,1.3451,0.65114,23089293,493.91,85.026,0.60084,0.60091,0.34343,0.08229,0.17512,0.036743,0.049259,2.6071e-4,0,0,0,0,9.6013e-6,0.02566,7.87,48.645,89.074,-0.010439,NaN,13.14,979.68,339.26,0.01,0.10439
0.93025,106.43,222.96,208.79,222.97,208.8,0.54918,-1.83e-4,0.54918,-0.019092,2.4172,0.94879,37.2,-80.6,9.7983,0.18503,0,1.5811,0.0061796,1860.2,154.63,0.59855,0.0079541,121.94,111.26,1.3573,0.65733,23304171,493.47,86.878,0.60258,0.60264,0.34314,0.08327,0.17617,0.033662,0.046014,1.5439e-4,0,0,0,0,2.064e-5,0.025903,7.87,48.645,89.061,-0.013542,NaN,13.125,979.42,339.25,0.01,0.1049
0.94025,108.67,225.04,207.84,225.06,207.85,0.5734,-1.881e-4,0.5734,-0.018796,2.4281,1.2542,37.2,-80.6,9.7983,0.16387,0,2.0579,0.0064286,1857.6,152.08,0.59834,0.0079536,122.01,111.23,1.3704,0.66349,23517952,493.03,88.748,0.60435,0.6044,0.34285,0.08427,0.17723,0.029816,0.041249,2.3439e-4,0,0,0,0,3.4319e-5,0.026145,7.87,48.645,89.042,-0.016114,NaN,13.111,979.16,339.24,0.01,0.10538
0.95025,110.93,227.12,206.8,227.13,206.81,0.59775,-1.9349e-4,0.59775,-0.018546,2.4426,1.6396,37.2,-80.6,9.7983,0.13911,0,2.4842,0.0075521,1855.1,149.54,0.59814,0.0079532,122.09,111.19,1.3843,0.66963,23730622,492.45,90.639,0.60614,0.60617,0.34255,0.085292,0.17829,0.025308,0.035153,-1.0473e-4,0,0,0,0,4.9101e-5,0.026386,7.87,48.645,89.02,-0.018375,NaN,13.096,978.89,339.24,0.01,0.10571
0.96025,113.21,229.18,205.61,229.2,205.62,0.62227,-1.9922e-4,0.62227,-0.018344,2.4614,2.1235,37.2,-80.6,9.7983,0.10946,0,2.843,0.010263,1852.5,146.99,0.59793,0.0079527,122.17,111.16,1.3992,0.67574,23942073,491.62,92.549,0.60796,0.60798,0.34226,0.086335,0.17936,0.019908,0.028222,1.5957e-4,0,0,0,0,6.3158e-5,0.026626,7.87,48.645,88.993,-0.020341,NaN,13.081,978.63,339.23,0.01,0.10616
0.97025,115.51,231.24,204.4,231.25,204.42,0.647,-2.0539e-4,0.647,-0.018188,2.4853,2.6623,37.2,-80.6,9.7983,0.077991,0,3.1235,0.010832,1850,144.46,0.59772,0.0079522,122.25,111.12,1.4146,0.68181,24152165,490.78,94.477,0.6098,0.60981,0.34196,0.0874,0.18043,0.01418,0.019585,-1.791e-4,0,0,0,0,7.4885e-5,0.026865,7.87,48.645,88.963,-0.021365,NaN,13.066,978.36,339.22,0.01,0.10654
0.98025,117.84,233.28,203.2,233.29,203.23,0.67199,-2.1202e-4,0.67199,-0.018077,2.5149,3.24,37.2,-80.6,9.7983,0.045643,0,3.311,0.018657,1847.5,141.92,0.59752,0.0079518,122.34,111.08,1.4302,0.68785,24360880,489.98,96.423,0.61166,0.61167,0.34167,0.088486,0.18151,0.0082956,0.011647,2.57e-4,0,0,0,0,8.268e-5,0.027102,7.87,48.645,88.931,-0.021666,NaN,13.051,978.08,339.21,0.01,0.10699
0.99025,120.18,235.31,202.32,235.32,202.35,0.69732,-2.1915e-4,0.69732,-0.018007,2.5503,3.8445,37.2,-80.6,9.7983,0.013378,0,3.4043,0.057483,1844.9,139.39,0.59731,0.0079513,122.43,111.05,1.4459,0.69385,24568228,489.79,98.388,0.61355,0.61355,0.34137,0.089596,0.18259,0.0024306,0.0038249,-1.7701e-4,0,0,0,0,8.5905e-5,0.027338,7.87,48.645,88.897,-0.021186,NaN,13.036,977.81,339.2,0.01,0.10746
1.0003,122.54,237.33,201.52,237.34,201.57,0.72302,-2.2676e-4,0.72302,-0.01797,2.5918,4.4554,37.2,-80.6,9.7983,0.017971,0,-3.3943,0.040786,1842.4,136.86,0.5971,0.0079509,122.46,111.01,1.454,0.69983,24774534,489.79,100.38,0.61547,0.61547,0.34107,0.090732,0.18367,0.003269,0.0051342,-1.5127e-5,0,0,0,0,-8.3955e-5,0.027573,7.87,48.645,88.863,-0.020208,NaN,13.02,977.53,339.19,0.01,0.10782
1.0103,124.92,239.34,200.66,239.36,200.73,0.74917,-2.3484e-4,0.74917,-0.01796,2.6398,5.131,37.2,-80.6,9.7983,0.052272,0,-3.2779,0.012319,1839.9,134.33,0.59689,0.0079504,122.44,110.98,1.4561,0.70578,2.498e7,489.72,102.38,0.61742,0.61743,0.34077,0.091894,0.18476,0.0095318,0.014207,-3.9657e-4,0,0,0,0,-7.6986e-5,0.027806,7.87,48.645,88.83,-0.019144,NaN,13.005,977.25,339.18,0.01,0.10818
1.0203,127.33,241.34,199.27,241.36,199.36,0.77584,-2.4335e-4,0.77584,-0.017971,2.6944,5.7549,37.2,-80.6,9.7983,0.08323,0,-3.0497,0.0088206,1837.4,131.81,0.59669,0.00795,122.42,110.94,1.4589,0.71171,25184152,488.69,104.42,0.6194,0.61941,0.34047,0.093084,0.18585,0.015212,0.022423,2.8837e-5,0,0,0,0,-6.5538e-5,0.028039,7.87,48.645,88.798,-0.017824,NaN,12.989,976.97,339.17,0.01,0.10864
1.0303,129.75,243.33,197.7,243.35,197.8,0.80308,-2.5224e-4,0.80308,-0.017996,2.7549,6.3108,37.2,-80.6,9.7983,0.10992,0,-2.7136,0.002291,1834.8,129.29,0.59648,0.0079495,122.42,110.91,1.4626,0.71759,25386892,487.36,106.47,0.62141,0.62143,0.34017,0.094299,0.18694,0.020133,0.029783,-8.3977e-5,0,0,0,0,-5.1043e-5,0.02827,7.87,48.645,88.769,-0.016989,NaN,12.974,976.69,339.16,0.01,0.10917
1.0403,132.19,245.31,196.12,245.32,196.24,0.83095,-2.6151e-4,0.83095,-0.018032,2.8205,6.7802,37.2,-80.6,9.7983,0.13154,0,-2.2874,-8.7543e-4,1832.3,126.77,0.59627,0.0079491,122.42,110.87,1.4674,0.72344,25587878,486.03,108.53,0.62344,0.62348,0.33987,0.09554,0.18804,0.02414,0.035021,-7.9123e-5,0,0,0,0,-3.5687e-5,0.0285,7.87,48.645,88.744,-0.017873,NaN,12.958,976.4,339.15,0.01,0.1096
1.0503,134.66,247.27,194.61,247.28,194.75,0.8595,-2.7119e-4,0.8595,-0.018078,2.8903,7.1421,37.2,-80.6,9.7983,0.14723,0,-1.7893,-0.0037582,1829.8,124.26,0.59606,0.0079486,122.43,110.83,1.4735,0.72923,25787102,484.84,110.61,0.6255,0.62554,0.33956,0.096806,0.18913,0.027065,0.040149,-3.1241e-4,0,0,0,0,-2.1493e-5,0.028727,7.87,48.645,88.724,-0.020004,NaN,12.942,976.11,339.14,0.01,0.11011
1.0603,137.14,249.21,193.17,249.23,193.31,0.88877,-2.8138e-4,0.88877,-0.01814,2.9621,7.172,37.2,-80.6,9.7982,0.1451,0,-1.2526,-0.0022991,1827.3,121.75,0.59585,0.0079481,122.47,110.8,1.4832,0.73499,25984742,483.8,112.7,0.62759,0.62763,0.33926,0.098101,0.19023,0.026699,0.039604,-2.1277e-4,0,0,0,0,-1.037e-5,0.028953,7.87,48.645,88.708,-0.022164,NaN,12.926,975.82,339.13,0.01,0.11048
1.0703,139.64,251.14,191.74,251.15,191.87,0.91874,-2.922e-4,0.91874,-0.018222,3.0336,7.0871,37.2,-80.6,9.7982,0.13788,0,-0.72148,-2.4151e-5,1824.8,119.26,0.59565,0.0079477,122.52,110.76,1.4939,0.7407,26180755,482.78,114.81,0.62971,0.62974,0.33896,0.099425,0.19132,0.02539,0.037885,-4.8234e-4,0,0,0,0,-3.3873e-6,0.029177,7.87,48.645,88.698,-0.023105,NaN,12.909,975.53,339.12,0.01,0.11083
1.0803,142.16,253.05,190.68,253.07,190.8,0.94943,-3.0365e-4,0.94943,-0.018325,3.1037,6.8992,37.2,-80.6,9.7982,0.12596,0,-0.21292,0.0023162,1822.3,116.76,0.59544,0.0079472,122.58,110.73,1.5057,0.74637,26375144,482.46,116.94,0.63185,0.63189,0.33866,0.10078,0.19242,0.023209,0.034555,-2.7494e-4,0,0,0,0,-2.9057e-7,0.0294,7.87,48.645,88.694,-0.02287,NaN,12.893,975.23,339.11,0.01,0.11122
1.0903,144.7,254.95,189.78,254.97,189.89,0.98081,-3.1574e-4,0.98081,-0.018444,3.1713,6.6112,37.2,-80.6,9.7982,0.1099,0,0.25268,5.0127e-4,1819.8,114.27,0.59523,0.0079468,122.64,110.69,1.5183,0.75201,26568298,482.46,119.09,0.63404,0.63406,0.33835,0.10217,0.19352,0.020257,0.031175,5.7147e-5,0,0,0,0,4.0312e-7,0.029621,7.87,48.645,88.694,-0.022105,NaN,12.876,974.93,339.1,0.01,0.11175
1.1003,147.26,256.85,188.87,256.87,188.97,1.0128,-3.2841e-4,1.0128,-0.018578,3.2356,6.2348,37.2,-80.6,9.7982,0.090583,0,0.65818,0.0029936,1817.3,111.78,0.59502,0.0079463,122.71,110.65,1.5316,0.75763,2.676e7,482.46,121.25,0.63626,0.63628,0.33805,0.10359,0.19462,0.016701,0.025974,3.0816e-4,0,0,0,0,2.695e-6,0.029841,7.87,48.645,88.699,-0.021215,NaN,12.86,974.63,339.09,0.01,0.11227
1.1103,149.84,258.73,187.81,258.75,187.9,1.0455,-3.4158e-4,1.0455,-0.018719,3.2965,5.9155,37.2,-80.6,9.7982,0.075582,0,1.0016,8.399e-4,1814.8,109.29,0.59481,0.0079459,122.77,110.62,1.5441,0.76321,26951305,482.23,123.45,0.63852,0.63853,0.33775,0.10505,0.19572,0.013941,0.02179,-2.34e-4,0,0,0,0,6.1506e-6,0.03006,7.87,48.645,88.707,-0.019741,NaN,12.843,974.33,339.08,0.01,0.11279
1.1203,152.44,260.61,186.4,260.63,186.48,1.0788,-3.5519e-4,1.0788,-0.018865,3.3538,5.522,37.2,-80.6,9.7982,0.058264,0,1.2851,0.0056931,1812.3,106.8,0.5946,0.0079454,122.83,110.58,1.5571,0.76876,27140992,481.37,125.66,0.64082,0.64083,0.33744,0.10655,0.19683,0.010751,0.016596,-2.7856e-4,0,0,0,0,9.9793e-6,0.030278,7.87,48.645,88.719,-0.017688,NaN,12.826,974.03,339.07,0.01,0.11332
1.1303,155.05,262.47,184.95,262.49,185.02,1.1126,-3.6907e-4,1.1126,-0.019006,3.4069,5.0779,37.2,-80.6,9.7982,0.039411,0,1.495,0.0080116,1809.9,104.32,0.59439,0.007945,122.9,110.54,1.5704,0.77428,27329069,480.48,127.89,0.64316,0.64317,0.33714,0.10809,0.19794,0.0072743,0.011214,-4.5032e-4,0,0,0,0,1.3315e-5,0.030494,7.87,48.645,88.732,-0.0142,NaN,12.809,973.72,339.06,0.01,0.11384
1.1403,157.69,264.31,183.54,264.33,183.59,1.1469,-3.8304e-4,1.1469,-0.019136,3.4554,4.6027,37.2,-80.6,9.7982,0.019837,0,1.6284,0.019761,1807.4,101.84,0.59418,0.0079446,122.97,110.51,1.5839,0.77975,27515501,479.67,130.14,0.64554,0.64554,0.33683,0.10967,0.19904,0.0036624,0.0054702,2.4427e-5,0,0,0,0,1.5577e-5,0.030709,7.87,48.645,88.748,-0.0096343,NaN,12.792,973.41,339.05,0.01,0.11437
1.1503,160.34,266.14,182.47,266.17,182.52,1.1817,-3.9686e-4,1.1817,-0.019243,3.4991,4.1248,37.2,-80.6,9.7982,5.1442e-4,0,1.5367,0.67006,1804.9,99.358,0.59397,0.0079441,123.04,110.47,1.5974,0.78517,2.77e7,479.53,132.41,0.64796,0.64796,0.33653,0.11129,0.20014,9.5002e-5,4.7118e-4,-2.2804e-4,0,0,0,0,1.3683e-5,0.030922,7.87,48.645,88.765,-0.0042508,NaN,12.775,973.1,339.04,0.01,0.11491
1.1603,163.01,267.96,181.47,267.99,181.51,1.2169,-4.1025e-4,1.2169,-0.019317,3.5383,3.728,37.2,-80.6,9.7982,0.014556,0,-1.6452,0.025311,1802.4,96.882,0.59376,0.0079437,123.06,110.43,1.604,0.79057,27883852,479.53,134.71,0.65042,0.65042,0.33622,0.11295,0.20125,0.0026928,0.0041442,4.3626e-5,0,0,0,0,-1.5469e-5,0.031133,7.87,48.645,88.781,3.2018e-4,NaN,12.757,972.79,339.03,0.01,0.11543
1.1703,165.7,269.77,180.46,269.8,180.49,1.2524,-4.2301e-4,1.2524,-0.019352,3.5737,3.3538,37.2,-80.6,9.7982,0.028164,0,-1.5458,0.01525,1800,94.408,0.59355,0.0079432,123.07,110.4,1.6107,0.79593,28066204,479.53,137.03,0.65294,0.65294,0.33592,0.11467,0.20236,0.0052188,0.008641,1.6227e-4,0,0,0,0,-1.3474e-5,0.031344,7.87,48.645,88.797,0.0028193,NaN,12.74,972.47,339.02,0.01,0.11596
1.1803,168.4,271.58,178.84,271.6,178.87,1.2883,-4.3503e-4,1.2883,-0.019347,3.6056,3.0067,37.2,-80.6,9.7982,0.03977,0,-1.3829,0.0099758,1797.5,91.934,0.59334,0.0079428,123.09,110.36,1.6179,0.80127,28247358,478.49,139.37,0.65551,0.65551,0.33561,0.11643,0.20346,0.0073811,0.011523,3.9378e-4,0,0,0,0,-1.0641e-5,0.031553,7.87,48.645,88.812,0.0038111,NaN,12.722,972.15,339.01,0.01,0.11668
1.1903,171.13,273.36,176.69,273.38,176.71,1.3245,-4.4629e-4,1.3245,-0.019306,3.6342,2.702,37.2,-80.6,9.7981,0.048932,0,-1.1692,0.010263,1795,89.469,0.59313,0.0079423,123.12,110.32,1.6256,0.80656,28426693,476.51,141.73,0.65812,0.65813,0.3353,0.11825,0.20457,0.009095,0.014943,6.2905e-5,0,0,0,0,-7.5076e-6,0.03176,7.87,48.645,88.825,0.0035821,NaN,12.705,971.83,339,0.01,0.11722
1.2003,173.87,275.12,174.52,275.15,174.53,1.361,-4.5683e-4,1.361,-0.019232,3.6601,2.4628,37.2,-80.6,9.7981,0.055294,0,-0.90742,0.0093473,1792.6,87.014,0.59292,0.0079419,123.15,110.29,1.6338,0.81178,28603653,474.52,144.11,0.66078,0.66078,0.335,0.12011,0.20567,0.010292,0.01706,1.2806e-4,0,0,0,0,-4.4645e-6,0.031965,7.87,48.645,88.835,0.001806,NaN,12.687,971.51,338.99,0.01,0.11776
1.2103,176.63,276.86,172.4,276.89,172.42,1.3977,-4.6675e-4,1.3977,-0.019133,3.6839,2.2914,37.2,-80.6,9.7981,0.058994,0,-0.61666,0.0095836,1790.1,84.559,0.5927,0.0079414,123.18,110.25,1.6425,0.81694,28778228,472.67,146.49,0.66348,0.66348,0.3347,0.12201,0.20676,0.010994,0.018171,-3.9285e-4,0,0,0,0,-2.036e-6,0.032167,7.87,48.645,88.843,-0.0011476,NaN,12.669,971.19,338.98,0.01,0.1183
1.2203,179.41,278.58,171.24,278.61,171.26,1.4347,-4.7626e-4,1.4347,-0.01902,3.7064,2.2197,37.2,-80.6,9.7981,0.05957,0,-0.30963,0.0066922,1787.6,82.106,0.59249,0.007941,123.21,110.21,1.6519,0.82204,2.895e7,472.54,148.89,0.66622,0.66623,0.3344,0.12397,0.20785,0.011114,0.017932,-4.8288e-4,0,0,0,0,-5.0697e-7,0.032367,7.87,48.645,88.848,-0.0049244,NaN,12.651,970.86,338.97,0.01,0.11883
